,City,Cloudiness,Country,Date,Humidity,Lat,Lng,Max Temp,Wind Speed
0,avarua,100,CK,1575248537,83,-21.21,-159.78,77.0,10.29
1,mataura,89,NZ,1575248517,50,-46.19,168.86,66.99,5.99
2,smithers,75,CA,1575248406,79,54.78,-127.17,19.4,2.24
3,taltal,0,CL,1575248548,81,-25.41,-70.49,58.42,1.63
4,bredasdorp,78,ZA,1575248515,82,-34.53,20.04,64.99,3.36
5,hasaki,75,JP,1575248522,93,35.73,140.83,60.8,8.05
6,ushuaia,75,AR,1575248529,87,-54.81,-68.31,50.0,6.93
7,ondo,100,NG,1575248640,92,7.1,4.83,75.36,1.34
8,ambovombe,20,MG,1575248641,80,-25.18,46.09,70.84,5.66
9,codrington,20,AU,1575248533,21,-28.95,153.24,84.99,17.22
10,hermanus,79,ZA,1575248536,85,-34.42,19.24,64.99,11.99
11,abu dhabi,75,JP,1575248565,87,34.51,131.49,55.4,14.99
12,pudozh,80,RU,1575248642,91,61.81,36.54,29.52,11.43
13,khatanga,0,RU,1575248516,99,71.98,102.47,-31.79,2.3
14,dikson,100,RU,1575248534,71,73.51,80.55,-2.49,9.69
15,corinto,75,CO,1575248642,69,3.17,-76.26,77.0,10.29
16,hobart,75,AU,1575248226,35,-42.88,147.33,57.99,12.75
17,provideniya,75,RU,1575248543,92,64.42,-173.23,24.8,4.47
18,oriximina,38,BR,1575248527,52,-1.77,-55.87,85.51,5.66
19,sinnar,84,IN,1575248643,73,19.85,74.0,68.16,5.68
20,ostrovnoy,94,RU,1575248528,84,68.05,39.51,20.3,23.47
21,praia,75,BR,1575248644,65,-20.25,-43.81,77.0,2.82
22,port alfred,100,CD,1575248540,77,-7.04,29.76,75.24,11.25
23,evensk,81,RU,1575248552,71,61.92,159.24,-12.84,10.56
24,albany,90,US,1575248507,85,42.65,-73.75,28.0,8.05
25,sompeta,27,IN,1575248645,82,18.93,84.6,67.15,3.44
26,bluff,78,AU,1575248539,20,-23.58,149.07,89.92,14.41
27,east london,99,UG,1575248517,94,3.43,31.7,69.64,1.39
28,bubaque,17,GW,1575248560,80,11.28,-15.83,82.09,14.05
29,mocajuba,56,BR,1575248646,65,-2.58,-49.5,82.96,5.39
30,punta arenas,75,PH,1575248522,74,14.18,121.12,80.6,9.17
31,halifax,5,CA,1575248557,85,44.65,-63.58,21.0,6.15
32,kapaa,1,US,1575248533,69,22.08,-159.32,80.6,19.46
33,clyde river,63,NZ,1575248409,57,-45.19,169.32,77.0,8.01
34,port elizabeth,100,CD,1575248568,77,-7.04,29.76,75.24,11.25
35,coquimbo,40,CL,1575248648,77,-29.95,-71.34,59.0,6.93
36,mahebourg,40,MU,1575248542,73,-20.41,57.7,77.0,10.29
37,beringovskiy,12,RU,1575248556,89,63.05,179.32,10.13,10.67
38,kodiak,90,US,1575248527,71,39.95,-94.76,32.0,17.22
39,busselton,0,AU,1575248528,29,-33.64,115.35,82.99,10.47
40,guerrero negro,90,AR,1575248572,93,-24.19,-65.45,64.4,3.36
41,lagoa,75,PT,1575248542,76,37.14,-8.45,55.4,12.75
42,yellowknife,90,CA,1575248506,85,62.45,-114.38,17.01,9.17
43,celestun,0,MX,1575248650,82,20.87,-90.4,78.06,15.95
44,puerto ayora,75,AR,1575248538,54,-51.62,-69.23,55.4,12.75
45,muzhi,98,RU,1575248543,96,65.4,64.7,9.64,6.13
46,vaini,40,IN,1575248518,94,15.34,74.49,69.8,5.82
47,salalah,83,OM,1575248547,49,17.01,54.1,73.4,5.82
48,cabo san lucas,75,ES,1575248541,87,43.18,-5.8,51.01,8.05
49,saldanha,29,PT,1575248532,81,41.42,-6.55,42.91,14.72
50,naze,40,NG,1575248557,94,5.43,7.07,77.0,3.42
51,daru,99,PG,1575248653,57,-9.07,143.21,88.74,4.85
52,longyearbyen,99,NO,1575248525,66,78.22,15.63,12.2,14.99
53,veraval,1,FR,1575248407,80,49.65,0.71,41.0,8.05
54,flinders,73,AU,1575248565,34,-34.58,150.85,70.0,24.16
55,elizabeth city,90,US,1575248654,93,40.66,-74.21,46.0,14.99
56,kpandae,52,GH,1575248654,44,8.46,-0.01,81.16,3.31
57,divnogorsk,100,RU,1575248655,57,55.96,92.38,17.6,6.71
58,waddan,51,LY,1575248655,40,29.16,16.14,59.32,10.02
59,tuktoyaktuk,75,CA,1575248505,91,69.44,-133.03,3.2,12.75
60,alyangula,40,AU,1575248656,62,-13.85,136.42,89.6,8.05
61,visby,99,SE,1575248656,91,57.64,18.3,37.99,10.29
62,barcelos,31,BR,1575248558,86,-0.97,-62.93,77.83,2.01
63,nikolskoye,90,RU,1575248514,92,59.7,30.79,30.99,15.66
64,chino valley,75,JP,1575248657,81,35.99,138.16,50.0,14.99
65,bonavista,98,CA,1575248657,83,48.65,-53.11,30.0,8.01
66,cape town,83,CL,1575248553,40,-36.41,-71.9,73.4,6.93
67,juazeirinho,26,BR,1575248658,84,-7.07,-36.58,69.98,14.74
68,kalmunai,100,LK,1575248469,85,7.42,81.82,79.2,17.63
69,geghamasar,100,AM,1575248658,91,40.31,45.68,34.57,1.95
70,kaitangata,100,NZ,1575248532,72,-46.28,169.85,59.0,18.01
71,jamestown,95,AU,1575248523,65,-33.21,138.6,56.95,19.15
72,tuatapere,100,NZ,1575248544,50,-46.13,167.69,66.99,5.99
73,ponta do sol,72,BR,1575248543,75,-0.53,-65.05,80.13,4.23
74,mys shmidta,33,RU,1575248521,96,62.06,48.62,10.27,4.94
75,bilecik,40,TR,1575248660,93,40.14,29.98,39.2,2.24
76,xai-xai,24,MZ,1575248661,97,-25.04,33.64,70.56,2.28
77,erie,75,US,1575248661,100,42.13,-80.09,43.0,3.36
78,fortuna,75,US,1575248549,71,40.6,-124.16,62.6,17.22
79,saint-joseph,100,FR,1575248542,100,43.56,6.97,53.01,3.36
80,sao filipe,94,IN,1575248533,64,20.51,76.21,67.8,6.91
81,saint-augustin,90,CA,1575248662,67,45.63,-73.98,21.99,8.05
82,bilma,77,NE,1575248662,23,18.69,12.92,67.42,5.95
83,sikonge,40,TZ,1575248662,94,-5.63,32.75,68.0,3.13
84,huarmey,67,PE,1575248663,68,-10.07,-78.15,68.22,3.83
85,alice springs,30,ZA,1575248663,93,-32.79,26.83,57.65,4.76
86,ratnagiri,100,IN,1575248663,77,16.98,73.3,71.82,4.56
87,rikitea,75,PF,1575248351,75,-23.12,-134.97,77.45,6.22
88,aksu,0,KZ,1575248552,77,52.04,76.93,5.0,11.18
89,hilo,90,US,1575248532,83,19.71,-155.08,73.0,10.29
90,sydney,74,AU,1575248530,26,-33.85,151.22,72.0,20.8
91,atuona,68,PF,1575248532,69,-9.8,-139.03,79.92,8.99
92,butaritari,67,KI,1575248518,72,3.07,172.79,84.65,10.98
93,twin falls,90,US,1575248665,93,48.16,-123.95,42.01,3.36
94,pangkalanbuun,100,ID,1575248665,86,-2.68,111.62,79.9,1.95
95,altay,0,CN,1575248665,31,47.83,88.13,12.65,5.68
96,ullapool,92,GB,1575248665,93,57.9,-5.16,45.0,5.01
97,faanui,91,PF,1575248538,68,-16.48,-151.75,83.61,7.52
98,seymchan,99,RU,1575248666,91,62.93,152.39,-20.07,4.5
99,fort nelson,98,IN,1575248667,90,17.96,79.61,69.67,5.12
100,wahpeton,77,US,1575248667,85,46.27,-96.61,12.2,9.17
101,kamenka,1,MD,1575248568,90,48.03,28.7,21.0,3.53
102,samarai,15,PG,1575248568,66,-10.62,150.67,85.01,5.84
103,cockburn town,90,AU,1575248668,45,-32.08,141.0,64.4,21.92
104,black forest,1,US,1575248668,41,31.01,-85.74,62.6,4.7
105,constitucion,20,MX,1575248547,15,23.99,-104.67,77.0,4.7
106,castro,100,CL,1575248538,76,-42.48,-73.76,55.4,3.36
107,oakdale,90,US,1575248557,87,37.77,-120.85,54.0,23.04
108,pingshan,38,CN,1575248669,58,28.83,104.35,44.74,1.61
109,hithadhoo,100,MV,1575248531,80,-0.6,73.08,82.15,10.11
110,saskylakh,37,RU,1575248540,97,71.97,114.09,-34.76,2.73
111,norman wells,1,US,1575248502,64,35.22,-97.44,44.6,8.05
112,anadyr,90,RU,1575248542,92,64.73,177.51,12.2,11.18
113,iquitos,100,PE,1575248567,88,-3.75,-73.25,77.0,3.36
114,barrow,0,AR,1575248512,67,-38.31,-60.23,48.34,4.21
115,haapiti,75,PF,1575248671,74,-17.57,-149.87,84.2,11.41
116,tommot,100,RU,1575248671,98,58.97,126.27,-18.08,2.57
117,arraial do cabo,40,BR,1575248537,73,-22.84,-46.65,73.4,16.11
118,surgut,99,RU,1575248672,62,61.25,73.4,19.4,13.42
119,tilichiki,96,RU,1575248672,88,60.47,166.1,1.02,6.35
120,biltine,86,TD,1575248672,23,14.53,20.93,65.97,13.27
121,lucapa,82,AO,1575248673,96,-8.42,20.74,66.0,1.83
122,kon tum,20,CI,1575248673,83,5.22,-3.39,82.4,6.93
123,chuy,0,UY,1575248548,61,-33.69,-53.46,56.46,8.99
124,hofn,100,IS,1575248572,91,64.25,-15.21,45.1,9.06
125,vanimo,100,PG,1575248539,76,-2.67,141.3,83.41,8.57
126,tasiilaq,100,GL,1575248536,100,65.61,-37.64,30.2,35.57
127,yulara,0,AU,1575248546,34,-25.24,130.99,78.8,13.87
128,bambous virieux,40,MU,1575248559,73,-20.26,57.41,77.0,10.29
129,half moon bay,20,LR,1575248675,94,6.38,-10.7,77.0,2.71
130,north bend,46,NG,1575248675,92,4.97,7.66,76.17,4.45
131,amapa,40,HN,1575248586,74,15.09,-87.97,80.6,11.41
132,kampene,100,CD,1575248676,99,-3.59,26.67,69.31,0.67
133,lovozero,62,RU,1575248677,89,68.01,35.02,13.14,9.24
134,uyutne,80,UA,1575248678,57,45.2,33.3,39.38,8.95
135,carutapera,70,BR,1575248678,78,-1.2,-46.02,82.04,15.79
136,pitimbu,20,BR,1575248562,83,-7.47,-34.81,78.8,4.7
137,bethel,40,US,1575248444,92,60.79,-161.76,17.6,8.05
138,leningradskiy,100,RU,1575248514,95,69.38,178.42,18.7,6.91
139,ketchikan,90,US,1575248679,100,55.34,-131.65,41.0,20.8
140,cayenne,40,GF,1575248404,94,4.94,-52.33,77.0,5.12
141,mikkeli,75,FI,1575248679,86,61.69,27.27,28.4,9.17
142,kupang,40,ID,1575248561,70,-10.16,123.6,86.0,5.82
143,mount gambier,0,GB,1575248551,86,53.66,-1.85,34.0,8.05
144,bure,100,NG,1575248680,24,10.52,10.33,71.47,5.95
145,marawi,91,PH,1575248534,79,8.0,124.29,77.0,1.99
146,tevaitoa,95,PF,1575248680,70,-16.78,-151.5,83.44,8.19
147,poum,27,MK,1575248561,68,41.28,20.71,34.0,4.59
148,udachnyy,8,RU,1575248681,59,66.42,112.4,-32.8,6.71
149,salto de agua,40,BR,1575248681,73,-23.2,-47.29,73.99,16.11
150,pevek,100,RU,1575248519,94,69.7,170.27,9.81,1.36
151,saint-philippe,90,CA,1575248533,72,45.36,-73.48,24.01,11.41
152,vaitape,91,PF,1575248682,68,-16.52,-151.75,83.61,7.52
153,mahibadhoo,93,MV,1575248682,76,3.78,72.97,82.51,8.21
154,namibe,100,AO,1575248545,74,-15.19,12.15,73.47,4.21
155,aasiaat,100,GL,1575248683,77,68.71,-52.87,18.79,8.12
156,chokurdakh,70,RU,1575248535,100,70.62,147.9,-31.2,2.86
157,kirkland lake,90,US,1575248683,75,47.69,-122.19,43.0,5.82
158,lavrentiya,69,RU,1575248547,90,65.58,-170.99,28.0,7.54
159,sistranda,75,NO,1575248538,86,63.73,8.83,37.99,17.22
160,canutama,79,BR,1575248684,73,-6.53,-64.38,81.72,1.95
161,yuzawa,75,JP,1575248684,86,39.05,140.54,42.8,2.24
162,ereymentau,0,KZ,1575248685,59,51.62,73.1,15.98,3.91
163,ancud,100,CL,1575248538,76,-41.87,-73.83,55.4,3.36
164,san juan,0,ML,1575248531,16,13.3,-4.9,74.3,9.86
165,iqaluit,90,CA,1575248545,71,63.75,-68.52,6.8,3.36
166,ajaccio,100,FR,1575248686,76,41.93,8.74,55.4,5.82
167,mangai,97,CD,1575248537,98,-4.07,19.59,70.92,0.67
168,glushkovo,54,RU,1575248687,78,51.34,34.64,26.44,6.78
169,susanville,90,US,1575248687,100,40.42,-120.65,34.0,4.34
170,batagay,100,RU,1575248687,98,67.65,134.64,-19.88,1.16
171,muros,40,ES,1575248687,81,42.77,-9.06,55.99,13.87
172,odienne,0,CI,1575248688,29,9.51,-7.57,72.27,1.79
173,awjilah,15,LY,1575248688,79,29.14,21.3,54.37,2.71
174,poya,40,NC,1575248689,68,-21.35,165.16,75.36,9.35
175,upernavik,100,GL,1575248508,62,72.79,-56.15,13.51,2.26
176,podgornoye,64,RU,1575248689,78,57.79,82.64,8.22,7.4
177,manokwari,99,ID,1575248689,74,-0.87,134.08,79.88,4.43
178,santa cruz,61,PH,1575248611,79,17.49,120.43,74.97,8.86
179,bilibino,100,RU,1575248549,99,68.06,166.44,-18.81,4.0
180,margate,75,AU,1575248554,35,-43.03,147.26,57.2,12.75
181,dagana,85,MR,1575248533,44,16.52,-15.51,75.2,2.24
182,vardo,90,US,1575248359,97,39.62,-77.74,39.0,10.29
183,oktyabrskoye,19,RU,1575248691,84,56.73,85.44,6.01,4.47
184,pampa,1,US,1575248461,51,35.54,-100.96,44.6,3.36
185,yar-sale,63,RU,1575248533,95,66.83,70.83,7.66,9.93
186,tiksi,29,RU,1575248523,96,71.64,128.87,-32.3,2.21
187,goderich,87,CA,1575248692,86,43.74,-81.71,33.01,15.88
188,san andres,0,ML,1575248402,16,13.3,-4.9,74.3,9.86
189,marovoay,20,MG,1575248693,69,-16.11,46.64,78.8,4.7
190,new norfolk,20,LR,1575248324,94,6.65,-10.59,77.0,2.71
191,gwanda,32,ZW,1575248693,48,-20.94,29.0,74.68,11.12
192,mar del plata,0,CN,1575248512,39,29.86,90.73,12.97,3.89
193,palanga,83,RO,1575248694,74,44.45,25.08,34.32,5.39
194,puro,100,PH,1575248694,85,13.13,123.76,80.22,21.79
195,katsuura,75,JP,1575248531,87,33.93,134.5,60.01,11.41
196,ekibastuz,0,KZ,1575248695,76,51.72,75.32,8.74,9.78
197,koulikoro,0,ML,1575248695,40,12.86,-7.56,69.8,6.93
198,challapata,10,BO,1575248695,57,-18.9,-66.78,57.51,16.04
199,roald,75,NO,1575248515,69,62.58,6.12,33.8,4.7
200,sinazongwe,81,ZM,1575248528,57,-17.26,27.46,82.62,8.25
201,cururupu,88,BR,1575248560,93,-1.82,-44.87,73.54,2.91
202,swellendam,86,ZA,1575248697,82,-34.02,20.44,62.6,3.36
203,oranjemund,28,ZA,1575248698,96,-28.55,16.43,57.45,4.7
204,yaan,99,NG,1575248698,46,7.38,8.57,79.3,3.18
205,sao joao da barra,94,IN,1575248620,64,20.51,76.21,67.8,6.91
206,thinadhoo,99,MV,1575248530,78,0.53,72.93,82.51,9.82
207,lubango,99,AO,1575248699,96,-14.92,13.49,60.66,0.69
208,plettenberg bay,100,DE,1575248543,86,51.21,7.87,36.0,3.36
209,ust-nera,39,RU,1575248625,100,64.57,143.24,-36.42,1.57
210,abu samrah,75,JP,1575248700,87,34.51,131.49,55.0,14.99
211,waipawa,77,NZ,1575248700,59,-39.94,176.59,73.99,0.87
212,san mateo del mar,0,ML,1575248402,16,13.3,-4.9,74.3,9.86
213,college,90,US,1575248700,100,64.86,-147.8,19.4,4.16
214,mopti,5,ML,1575248701,49,14.49,-4.19,73.4,4.7
215,kieta,3,PG,1575248561,76,-6.22,155.63,82.58,3.04
216,ilulissat,100,GL,1575248534,85,69.22,-51.1,24.8,4.7
217,chumikan,100,RU,1575248702,83,54.72,135.31,5.56,2.26
218,grand river south east,90,FR,1575248562,97,48.39,5.49,41.0,5.82
219,hambantota,20,LK,1575248534,100,6.12,81.12,73.4,3.36
220,rio gallegos,90,US,1575248547,86,41.11,-90.4,34.0,17.22
221,gazanjyk,81,TM,1575248702,54,39.24,55.52,52.07,7.81
222,cherskiy,100,RU,1575248549,97,68.75,161.3,-3.66,16.69
223,gushikawa,75,JP,1575248703,73,26.35,127.87,69.8,27.51
224,thompson,90,CA,1575248515,92,55.74,-97.86,12.2,9.17
225,santiago,100,PH,1575248704,96,16.69,121.54,69.21,0.87
226,khasan,100,RU,1575248704,45,42.43,130.64,21.92,16.87
227,flin flon,90,FR,1575248705,87,48.5,6.66,35.6,4.7
228,aquiraz,38,BR,1575248705,78,-3.9,-38.39,86.0,6.93
229,srivardhan,37,IN,1575248705,71,18.03,73.02,77.63,4.54
230,tura,0,RU,1575248553,99,64.27,100.22,-35.28,1.16
231,llanes,99,ES,1575248706,90,43.42,-4.75,51.01,6.98
232,beya,0,RU,1575248706,75,53.05,90.92,16.9,4.16
233,oranjestad,20,AW,1575248516,78,12.52,-70.03,82.4,21.92
234,griffith,75,AU,1575248707,54,-34.29,146.06,57.99,28.86
235,alta floresta,98,NO,1575248707,76,69.97,23.27,32.0,18.34
236,tsumeb,80,NA,1575248707,68,-19.25,17.72,69.31,1.97
237,vila franca do campo,75,IT,1575248707,100,45.18,8.4,44.01,5.82
238,georgetown,20,GY,1575248530,83,6.8,-58.16,80.6,4.7
239,rawson,49,AR,1575248544,60,-43.3,-65.11,58.24,19.1
240,komsomolskiy,96,RU,1575248531,90,67.55,63.78,12.87,2.37
241,sayyan,59,YE,1575248708,51,15.17,44.32,46.36,1.68
242,karlstad,79,SE,1575248709,92,59.38,13.5,23.0,5.82
243,port augusta,100,CD,1575248540,77,-7.04,29.76,75.24,11.25
244,rwamagana,98,RW,1575248709,93,-1.95,30.43,66.0,1.99
245,pisco,45,PE,1575248564,82,-13.71,-76.2,68.0,19.46
246,bam,4,IR,1575248710,53,29.11,58.36,50.7,1.36
247,riviere-au-renard,5,CA,1575248710,66,49.0,-64.4,15.8,5.82
248,dali,0,CN,1575248710,30,34.79,109.94,29.73,9.01
249,kysyl-syr,96,RU,1575248580,97,63.9,122.77,-26.32,3.56
250,klyuchi,0,RU,1575248711,82,52.25,79.17,7.57,6.42
251,port lincoln,100,CD,1575248534,77,-7.04,29.76,75.24,11.25
252,toila,100,EE,1575248711,87,59.42,27.51,34.74,22.62
253,shetpe,95,KZ,1575248711,74,44.14,52.16,43.81,13.44
254,vihti,40,FI,1575248712,100,60.42,24.32,28.0,5.82
255,lebu,0,ET,1575248517,81,8.96,38.73,49.35,2.01
256,nelson bay,100,CA,1575248409,90,49.49,-117.29,20.07,0.51
257,mackay,20,CA,1575248712,72,53.65,-115.58,17.6,4.7
258,aitape,82,PG,1575248568,76,-3.15,142.36,82.85,4.56
259,beeville,90,US,1575248713,29,28.4,-97.75,63.0,5.82
260,avera,1,US,1575248555,41,33.19,-82.53,62.6,4.7
261,buraydah,75,SA,1575248713,55,26.33,43.97,64.4,4.7
262,carnarvon,53,ZA,1575248521,27,-30.97,22.13,59.09,2.91
263,urengoy,100,RU,1575248714,94,65.96,78.37,12.18,7.56
264,port hueneme,100,CD,1575248534,77,-7.04,29.76,75.24,11.25
265,qaanaaq,100,GL,1575248532,63,77.48,-69.36,7.65,6.98
266,lexington,90,US,1575248661,60,38.05,-84.5,43.0,16.11
267,mattru,0,SL,1575248715,92,7.62,-11.83,75.92,2.84
268,arica,23,CL,1575248715,77,-18.48,-70.32,68.0,4.7
269,esperance,90,AU,1575248518,100,-33.86,121.89,60.8,8.05
270,jasper,90,US,1575248342,65,33.83,-87.28,51.8,12.82
271,portland,93,US,1575248408,92,43.66,-70.25,32.0,9.17
272,maun,26,BW,1575248716,46,-19.99,23.42,79.18,2.33
273,pandamatenga,64,BW,1575248717,48,-18.54,25.64,76.39,5.23
274,rundu,100,NA,1575248717,25,-17.91,19.77,77.0,3.36
275,hurricane,1,US,1575248717,92,37.18,-113.29,44.6,4.7
276,kibara,75,TZ,1575248717,94,-2.15,33.45,69.8,4.0
277,petropavlovsk-kamchatskiy,0,RU,1575248539,67,53.05,158.65,19.4,6.71
278,amontada,100,BR,1575248718,65,-3.36,-39.83,79.36,9.13
279,airai,62,TL,1575248538,47,-8.93,125.41,81.34,4.81
280,maple creek,1,US,1575248718,92,46.59,-91.72,28.4,7.36
281,hollins,90,US,1575248719,93,37.35,-79.95,45.0,4.7
282,chornukhy,29,UA,1575248719,87,50.27,32.94,27.46,6.08
283,yantal,74,RU,1575248720,98,56.85,105.25,-16.2,2.44
284,ihosy,36,MG,1575248720,89,-22.4,46.13,60.94,8.05
285,karratha,35,AU,1575248415,46,-20.74,116.85,82.67,18.92
286,wanning,75,AT,1575248567,100,48.64,13.53,35.01,2.24
287,souillac,90,FR,1575248509,93,45.6,-0.6,42.8,11.41
288,shingu,75,JP,1575248578,93,33.72,135.99,64.4,11.41
289,berlevag,100,NO,1575248721,82,70.86,29.09,26.82,6.53
290,wewak,81,PG,1575248721,71,-3.55,143.63,84.06,3.51
291,isangel,93,VU,1575248536,65,-19.55,169.27,80.6,6.93
292,san quintin,0,ML,1575248402,16,13.3,-4.9,74.3,9.86
293,tutoia,69,BR,1575248722,77,-2.76,-42.27,78.67,7.25
294,kedrovyy,97,RU,1575248722,57,56.17,91.82,17.6,6.71
295,grindavik,90,IS,1575248554,100,63.84,-22.43,46.4,11.41
296,hualmay,33,PE,1575248723,73,-11.1,-77.61,66.85,4.63
297,maceio,6,BR,1575248723,88,-9.67,-35.74,75.2,8.05
298,nachingwea,60,TZ,1575248723,97,-10.37,38.76,70.81,3.04
299,maningrida,17,AU,1575248724,48,-12.05,134.23,91.33,8.28
300,mogadishu,100,SO,1575248320,71,2.04,45.34,80.56,8.5
301,touros,20,BR,1575248560,83,-5.2,-35.46,77.0,5.82
302,haines junction,90,US,1575248725,74,44.91,-117.94,33.01,16.11
303,cidreira,0,BR,1575248546,64,-30.17,-50.22,68.85,17.0
304,natal,20,BR,1575248531,78,-5.81,-35.21,80.6,6.93
305,nanortalik,100,GL,1575248542,94,60.14,-45.24,39.79,27.89
306,buzdyak,100,RU,1575248726,96,54.57,54.53,28.85,4.25
307,kruisfontein,61,ZA,1575248560,93,-34.0,24.73,59.54,5.3
308,alofi,100,NU,1575248533,69,-19.06,-169.92,80.6,4.7
309,fukue,75,JP,1575248727,93,35.03,136.69,55.99,5.82
310,bandarbeyla,65,SO,1575248727,77,9.49,50.81,78.76,29.51
311,hokitika,100,NZ,1575248727,96,-42.72,170.96,61.05,23.06
312,xixiang,20,CN,1575248728,62,22.58,113.87,61.0,17.22
313,narsaq,100,GL,1575248555,75,60.91,-46.05,41.0,13.87
314,ahipara,55,NZ,1575248562,83,-35.17,173.16,77.0,4.0
315,atambua,48,ID,1575248566,60,-9.11,124.89,84.52,3.87
316,kutum,73,SD,1575248729,27,14.2,24.66,57.51,4.92
317,morant bay,40,JM,1575248729,88,17.9,-76.43,80.6,11.41
318,aklavik,75,CA,1575248544,77,68.22,-135.01,6.8,6.93
319,atikokan,20,CA,1575248730,91,48.76,-91.62,12.04,5.06
320,mehamn,100,NO,1575248553,93,71.03,27.85,21.02,9.75
321,puerto ayacucho,75,AR,1575248582,54,-51.62,-69.23,55.4,12.75
322,muravlenko,97,RU,1575248732,92,63.79,74.5,15.4,14.27
323,ulety,91,RU,1575248733,93,51.36,112.48,-4.74,2.39
324,pontes e lacerda,83,BR,1575248734,86,-7.27,-48.27,75.69,2.93
325,klaksvik,100,FO,1575248548,100,62.23,-6.59,41.0,2.24
326,katangli,0,RU,1575248560,90,51.71,143.23,11.46,1.3
327,epinal,90,FR,1575248735,97,48.18,6.45,39.2,6.93
328,qinhuangdao,0,CN,1575248735,48,39.94,119.59,17.92,5.44
329,pandan,100,PH,1575248735,76,11.72,122.09,81.19,17.18
330,sechenovo,12,RU,1575248737,87,55.22,45.89,16.65,8.97
331,bay-khaak,19,RU,1575248737,80,51.16,94.47,6.53,5.57
332,severo-kurilsk,78,RU,1575248507,84,50.68,156.12,25.61,7.23
333,bataipora,100,BR,1575248738,97,-22.3,-53.27,72.59,2.66
334,geraldton,20,CA,1575248738,84,49.72,-86.95,6.8,3.36
335,salamiyah,35,SY,1575248559,87,35.01,37.05,55.27,9.35
336,port moresby,100,CD,1575248568,77,-7.04,29.76,75.24,11.25
337,marienburg,75,DE,1575248591,85,52.12,9.98,36.0,5.82
338,tyubuk,100,RU,1575248739,84,56.05,60.94,17.53,10.76
339,luanda,53,AO,1575248740,80,-8.83,13.24,79.84,7.47
340,verkhnetulomskiy,75,RU,1575248740,92,68.61,31.8,14.0,2.24
341,bulungu,84,CD,1575248740,97,-4.54,18.6,70.43,3.8
342,yuzha,0,RU,1575248741,75,56.58,42.01,24.33,7.31
343,chongwe,97,ZM,1575248741,78,-15.33,28.68,68.25,5.64
344,basingstoke,0,GB,1575248450,86,51.26,-1.09,36.0,2.24
345,mount isa,0,GB,1575248551,86,53.66,-1.85,34.0,8.05
346,kaili,98,ID,1575248742,67,-3.46,120.21,70.52,1.86
347,beidao,0,CN,1575248742,47,34.57,105.89,25.97,1.39
348,victoria,75,BN,1575248411,88,5.28,115.24,78.8,2.24
349,anastacio,92,BR,1575248743,96,-20.48,-55.81,71.74,6.06
350,marshfield,90,US,1575248743,86,42.09,-70.71,37.99,16.11
351,galle,0,GN,1575248544,74,10.08,-12.83,68.43,2.08
352,yima,0,CN,1575248744,29,34.75,111.87,32.36,16.35
353,ambilobe,95,MG,1575248745,75,-13.19,49.05,76.95,10.04
354,honiara,40,SB,1575248745,74,-9.43,159.96,86.0,6.93
355,almaznyy,13,RU,1575248746,79,48.03,40.04,26.6,4.47
356,tubmanburg,1,LR,1575248746,95,6.87,-10.82,74.23,1.7
357,greystones,20,IE,1575248746,81,53.14,-6.06,33.01,8.05
358,benghazi,37,LY,1575248746,63,32.12,20.07,64.54,7.11
359,agadez,1,NE,1575248747,14,16.97,7.99,68.0,5.82
360,bambanglipuro,51,ID,1575248536,80,-7.95,110.28,80.44,7.29
361,bonthe,0,SL,1575248747,84,7.53,-12.5,79.81,6.78
362,tchollire,100,CM,1575248748,26,8.4,14.17,72.41,1.88
363,havelock,1,US,1575248526,88,34.88,-76.9,64.4,13.87
364,iracoubo,43,GF,1575248748,79,5.48,-53.21,81.82,16.33
365,shache,1,CN,1575248748,74,38.42,77.24,21.87,4.14
366,vila velha,75,IT,1575248625,100,45.18,8.4,44.01,5.82
367,marsa matruh,90,FR,1575248749,100,42.82,2.16,48.0,9.17
368,san francisco,0,ML,1575248590,16,13.3,-4.9,74.3,9.86
369,peniche,0,PT,1575248750,76,39.36,-9.38,54.0,16.11
370,dingle,100,PH,1575248533,84,11.0,122.67,77.43,0.87
371,skowhegan,1,US,1575248750,49,44.77,-69.72,28.0,8.05
372,gerash,0,IR,1575248750,81,27.67,54.14,46.4,1.36
373,gien,94,FR,1575248490,92,47.69,2.63,37.99,1.99
374,jaguaruana,72,BR,1575248751,74,-4.83,-37.78,82.4,10.29
375,luderitz,0,NA,1575248564,87,-26.65,15.16,57.2,9.17
376,borovoy,100,RU,1575248751,96,63.23,52.89,22.93,5.88
377,ribeira grande,75,PT,1575248561,75,41.76,-8.56,52.0,13.87
378,sinnamary,43,GF,1575248752,79,5.38,-52.96,81.82,16.33
379,hervey bay,1,US,1575248752,42,33.5,-93.78,48.99,14.99
380,tiarei,75,PF,1575248543,74,-17.53,-149.33,84.2,11.41
381,santa cruz de la palma,61,PH,1575248735,79,17.49,120.43,74.97,8.86
382,trelew,63,AR,1575248531,25,-43.25,-65.31,63.45,18.95
383,sao miguel do araguaia,94,IN,1575248754,64,20.51,76.21,67.8,6.91
384,penzance,38,GB,1575248755,80,50.12,-5.53,45.0,6.93
385,nuuk,100,GL,1575248566,92,64.17,-51.74,30.2,6.93
386,boyuibe,95,BO,1575248755,86,-20.43,-63.28,65.41,6.6
387,miles city,5,AU,1575248755,23,-26.66,150.19,78.84,18.48
388,minot,90,US,1575248499,100,48.23,-101.3,23.0,10.29
389,oktyabrskiy,26,RU,1575248757,85,55.61,37.97,23.0,6.71
390,menongue,100,AO,1575248757,94,-14.66,17.68,63.81,3.24
391,petropavlivka,96,UA,1575248757,62,48.46,36.42,31.01,6.89
392,zhigansk,100,RU,1575248757,95,66.77,123.37,-29.2,10.8
393,pauini,74,BR,1575248757,80,-7.71,-67.0,79.5,1.39
394,bandar,20,BD,1575248758,93,22.29,91.78,66.2,3.36
395,enna,93,IT,1575248758,93,37.57,14.28,57.99,5.82
396,piacabucu,40,BR,1575248759,79,-10.41,-36.43,77.83,13.4
397,moerai,96,PF,1575248541,80,-22.43,-151.33,76.28,4.43
398,manjeshwar,40,IN,1575248760,94,12.72,74.89,75.2,2.19
399,kavieng,38,PG,1575248519,64,-2.57,150.8,84.04,1.21
400,san cristobal,0,ML,1575248590,16,13.3,-4.9,74.3,9.86
401,puerto castilla,75,AR,1575248582,54,-51.62,-69.23,55.4,12.75
402,batagay-alyta,80,RU,1575248760,96,67.8,130.41,-24.99,2.71
403,oxford,1,US,1575248761,43,33.61,-85.83,55.0,20.8
404,irece,11,BR,1575248761,42,-11.3,-41.86,77.67,6.51
405,svetlogorsk,90,RU,1575248555,92,53.14,59.15,15.8,8.95
406,rocha,0,UY,1575248426,79,-34.48,-54.34,50.56,5.66
407,laguna,40,BZ,1575248306,83,16.17,-88.94,78.8,2.3
408,beloha,0,MG,1575248526,85,-25.17,45.06,70.66,4.12
409,sorland,81,NO,1575248535,58,67.67,12.69,37.51,30.29
410,darnah,7,LY,1575248763,67,32.77,22.64,66.25,7.0
411,bolobo,100,CD,1575248763,91,-2.17,16.23,74.3,3.4
412,linqiong,82,CN,1575248763,87,30.42,103.46,50.0,1.63
413,caravelas,100,BR,1575248558,84,-17.73,-39.27,77.77,10.49
414,san jose,0,ML,1575248590,16,13.3,-4.9,74.3,9.86
415,camacari,88,BR,1575248535,78,-12.7,-38.32,80.6,13.87
416,harper,1,US,1575248552,29,30.3,-99.24,52.0,8.05
417,esna,33,RO,1575248566,71,45.2,27.57,33.55,4.97
418,campbell river,90,US,1575248765,76,37.29,-121.95,57.2,17.22
419,mansa,0,IN,1575248765,88,23.43,72.66,66.2,5.82
420,vitim,21,RU,1575248765,99,59.44,112.57,-35.1,1.32
421,ozernovskiy,100,RU,1575248626,74,51.5,156.52,29.66,9.64
422,tezu,42,IN,1575248542,56,27.93,96.16,56.14,2.77
423,omsukchan,100,RU,1575248767,93,62.53,155.8,-22.74,4.45
424,phonhong,20,LA,1575248767,83,18.5,102.42,71.6,2.24
425,blagoyevo,36,RU,1575248767,96,63.37,47.92,7.97,4.88
426,camopi,40,GF,1575248767,89,3.17,-52.33,75.94,5.53
427,quzhou,0,CN,1575248768,77,28.97,118.86,42.8,2.66
428,bathsheba,40,BB,1575248606,78,13.22,-59.52,82.4,13.87
429,lapua,0,FI,1575248768,86,62.97,23.01,32.0,6.93
430,nardo,51,IT,1575248768,76,40.18,18.03,50.0,5.82
431,acari,15,BR,1575248769,81,-6.44,-36.64,71.69,24.02
432,prince rupert,1,CA,1575248769,85,52.97,-108.38,16.0,8.05
433,lazurne,0,UA,1575248769,80,46.77,34.99,29.44,6.31
434,nikolayevsk-na-amure,73,RU,1575248769,78,53.14,140.72,3.94,1.32
435,gamba,0,CN,1575248770,68,28.28,88.52,15.15,3.24
436,arman,0,RU,1575248548,73,59.7,150.17,7.63,12.88
437,mozarlandia,72,BR,1575248770,69,-14.74,-50.57,80.46,6.06
438,mahajanga,20,MG,1575248546,69,-15.72,46.32,78.8,4.7
439,muroto,75,JP,1575248772,93,33.37,134.14,59.0,6.93
440,padang,88,ID,1575248617,95,-0.92,100.36,70.05,1.97
441,torbay,90,CA,1575248559,79,47.66,-52.73,30.99,12.75
442,taksimo,100,RU,1575248773,83,56.36,114.84,-22.4,2.68
443,koratla,92,IN,1575248773,75,18.82,78.72,69.94,2.01
444,shaowu,9,CN,1575248774,80,27.34,117.49,38.39,2.44
445,katherine,40,AU,1575248774,43,-14.47,132.26,91.4,12.75
446,amuntai,100,ID,1575248550,75,-2.42,115.25,82.27,0.49
447,san vicente de canete,0,ML,1575248775,16,13.3,-4.9,74.3,9.86
448,kita,75,JP,1575248775,87,35.76,139.74,60.8,6.93
449,nioki,100,CD,1575248775,91,-2.72,17.69,74.26,2.3
450,tautira,75,PF,1575248571,74,-17.73,-149.15,84.2,11.41
451,puerto cabezas,75,AR,1575248582,54,-51.62,-69.23,55.4,12.75
452,saint-pierre,90,FR,1575248539,100,48.95,4.24,37.4,17.22
453,farafangana,100,MG,1575248776,77,-22.82,47.83,77.56,14.27
454,tomatlan,43,MX,1575248550,85,19.93,-105.25,76.01,3.2
455,lompoc,1,US,1575248400,50,34.64,-120.46,60.8,11.41
456,sabang,92,PH,1575248567,78,13.8,121.11,79.0,4.0
457,ust-kut,83,RU,1575248536,98,56.78,105.75,-16.22,2.57
458,ust-ilimsk,100,RU,1575248778,96,57.96,102.73,-9.29,1.97
459,sainte-anne-des-monts,42,CA,1575248778,90,49.13,-66.49,10.65,2.51
460,srednekolymsk,100,RU,1575248542,94,67.46,153.71,-21.57,7.81
461,canas,20,BR,1575248778,88,-22.7,-45.05,69.8,3.36
462,tateyama,75,JP,1575248549,55,36.66,137.31,66.2,21.92
463,san patricio,0,ML,1575248402,16,13.3,-4.9,74.3,9.86
464,lulea,100,SE,1575248461,63,65.58,22.15,30.2,18.34
465,digby,26,CA,1575248780,59,44.62,-65.76,31.21,7.11
466,chandbali,26,IN,1575248780,63,20.77,86.74,66.7,4.65
467,kalemie,99,CD,1575248780,96,-5.95,29.2,66.07,2.21
468,konevo,0,BG,1575248781,79,41.67,25.61,35.01,1.01
469,deolali,84,IN,1575248781,73,19.94,73.86,68.16,5.68
470,cabedelo,20,BR,1575248559,83,-6.97,-34.84,78.8,4.7
471,namatanai,66,PG,1575248553,70,-3.66,152.44,83.8,1.59
472,mezen,60,RU,1575248782,93,65.85,44.24,14.14,14.05
473,najran,4,SA,1575248782,54,17.54,44.22,53.6,1.59
474,mayumba,96,GA,1575248568,80,-3.44,10.65,80.92,9.48
475,armash,90,AM,1575248783,93,39.76,44.81,42.8,4.7
476,newton,100,US,1575248765,96,42.34,-71.21,36.0,14.99
477,mbini,100,GQ,1575248783,78,1.58,9.62,80.51,3.11
478,semey,0,KZ,1575248784,84,50.41,80.25,-2.2,8.95
479,evanston,90,US,1575248784,86,42.04,-87.69,36.0,13.87
480,yarada,75,IN,1575248785,88,17.65,83.27,77.0,4.7
481,san felipe,0,ML,1575248775,16,13.3,-4.9,74.3,9.86
482,pacific grove,90,US,1575248785,75,47.26,-122.25,44.01,5.82
483,kollam,75,IN,1575248785,94,8.88,76.6,77.0,2.24
484,krasnorechenskiy,100,RU,1575248786,77,44.63,135.35,16.11,1.79
485,gizo,75,IL,1575248506,93,31.8,34.94,63.0,8.05
486,saint-francois,90,FR,1575248548,87,46.42,3.91,44.6,3.36
487,minna,96,NG,1575248787,33,9.62,6.55,77.22,4.74
488,jilin,73,CN,1575248787,52,43.84,126.54,12.0,13.49
489,korhogo,0,CI,1575248787,24,9.46,-5.63,75.42,1.68
490,laguna de perlas,40,BZ,1575248787,94,16.17,-88.94,77.0,2.3
491,high prairie,1,US,1575248788,42,33.61,-95.75,48.99,9.17
492,knin,100,HR,1575248788,67,44.04,16.2,57.2,16.11
493,jiazi,75,CN,1575248789,72,19.61,110.49,64.4,13.42
494,goundi,100,TD,1575248789,24,9.36,17.37,71.6,3.11
495,mocuba,68,MZ,1575248789,94,-16.84,36.99,73.92,2.64
496,chernyshevskiy,18,RU,1575248532,95,63.01,112.47,-34.47,2.01
497,mmathubudukwane,0,BW,1575248790,27,-24.61,26.43,73.4,6.93
498,charyshskoye,0,RU,1575248790,70,51.4,83.56,13.05,2.82
499,porto novo,1,PT,1575248553,66,41.15,-8.61,50.0,9.17
500,lakes entrance,90,US,1575248791,78,37.5,-83.94,42.8,11.41
501,waingapu,62,ID,1575248792,74,-9.65,120.26,83.52,4.9
502,sambava,88,MG,1575248792,96,-14.27,50.17,70.0,3.04
503,lazaro cardenas,5,MX,1575248792,63,29.05,-111.04,68.0,4.7
504,gorontalo,100,ID,1575248792,70,0.54,123.06,83.3,1.74
505,viedma,0,AR,1575248563,45,-40.81,-62.99,57.51,12.71
506,oistins,40,BB,1575248493,78,13.07,-59.53,82.4,13.87
507,rizhao,0,CN,1575248793,51,35.43,119.46,30.49,11.36
508,guanica,90,PR,1575248793,82,17.97,-66.91,79.0,6.93
509,porto santo,1,PT,1575248656,66,41.15,-8.61,50.0,9.17
510,nhulunbuy,75,AU,1575248794,55,-12.18,136.78,91.4,5.82
511,batie,75,FR,1575248794,93,45.06,5.82,42.8,4.7
512,neya,0,RU,1575248794,75,58.29,43.89,22.75,7.65
513,batticaloa,100,LK,1575248795,96,7.71,81.69,72.3,4.68
514,nabire,100,ID,1575248546,98,-3.36,135.5,73.11,3.13
515,camacha,40,PT,1575248547,77,33.08,-16.33,64.4,17.22
516,camabatela,99,AO,1575248795,98,-8.19,15.37,62.4,3.15
517,santa rosa,61,PH,1575248611,79,17.49,120.43,74.97,8.86
518,acapulco,75,MX,1575248567,79,16.86,-99.88,84.2,4.7
519,eureka,75,US,1575248796,71,40.8,-124.16,62.6,17.22
520,morondava,8,MG,1575248558,74,-20.3,44.28,76.53,2.19
521,ayorou,0,NE,1575248797,12,14.73,0.92,76.15,5.01
522,dawei,88,MM,1575248550,70,14.07,98.19,81.59,14.56
523,adrar,0,DZ,1575248797,32,27.87,-0.29,57.2,4.7
524,leua,100,AO,1575248797,91,-11.65,20.45,64.92,2.8
525,sri aman,35,MA,1575248798,72,30.04,-8.8,59.0,12.75
526,progreso,0,UY,1575248798,63,-34.68,-56.22,60.8,4.7
527,batesville,90,US,1575248798,45,35.77,-91.64,44.6,11.41
528,sobolevo,25,RU,1575248538,77,54.43,31.9,23.9,9.44
529,shu,100,KZ,1575248799,53,43.6,73.76,34.25,0.6
530,houma,0,CN,1575248799,43,35.63,111.36,23.77,1.92
531,mugla,1,BG,1575248799,79,41.62,24.49,28.4,2.24
532,jacareacanga,42,BR,1575248800,60,-6.22,-57.76,82.2,3.02
533,narasannapeta,36,IN,1575248800,81,18.42,84.04,68.67,4.34
534,meulaboh,100,ID,1575248553,84,4.14,96.13,79.09,15.19
535,broome,26,GB,1575248536,93,52.47,1.45,39.2,10.29
536,parys,0,ZA,1575248801,34,-26.9,27.46,70.07,15.99
537,ilici,40,IT,1575248801,93,41.05,14.91,57.99,1.12
538,grand gaube,90,FR,1575248802,97,48.39,5.49,41.0,5.82
539,palmer,75,AU,1575248511,55,-34.85,139.16,64.4,20.8
540,kalinovskaya,75,RU,1575248802,93,43.57,45.52,42.8,22.37
541,taoudenni,85,ML,1575248538,23,22.68,-3.98,61.84,2.89
542,san rafael,0,ML,1575248775,16,13.3,-4.9,74.3,9.86
543,lastoursville,97,GA,1575248803,97,-0.81,12.73,71.76,1.12
544,hamilton,90,CA,1575248510,97,43.26,-79.87,36.0,26.4
545,cabatuan,100,PH,1575248804,87,16.95,121.67,72.54,11.72
546,hilton head island,0,GB,1575248804,100,52.65,-2.08,33.01,4.7
547,kodino,24,RU,1575248804,89,63.72,39.64,20.14,9.93
548,kintampo,0,GH,1575248805,48,8.05,-1.73,80.76,2.33
549,platanos,40,GR,1575248805,81,35.47,23.6,60.01,22.35
550,sao felix do xingu,94,IN,1575248754,64,20.51,76.21,67.8,6.91
551,iskateley,100,RU,1575248546,94,67.68,53.15,18.95,6.13
552,casa nova,38,NI,1575248806,83,13.34,-85.37,68.32,0.63
553,pangoa,39,PE,1575248806,96,-12.12,-73.0,72.5,1.59
554,san jeronimo,0,ML,1575248531,16,13.3,-4.9,74.3,9.86
555,miyako,75,JP,1575248807,71,33.63,130.94,55.99,9.17
556,ixtapa,75,MX,1575248563,74,20.71,-105.21,82.4,9.17
557,laureles,5,MX,1575248807,63,29.18,-110.87,68.0,4.7
